{
  "shops": [
    {
      "id": "30000",
      "name": "Silver Marten",
      "category": "FOOD_TRUCK",
      "address": {
        "street": "Jessie Meadow",
        "zipcode": 32183,
        "city": "Jacksonville",
        "country": "US"
      },
      "phone": "(576) 289-5065 x992",
      "rating": 4.1,
      "imgSrc": "https://loremflickr.com/640/480/food?lock=5649730382069760",
      "geo": {
        "latitude": 58.066,
        "longitude": -111.9561
      },
      "tags": ["Greek", "Tea"],
      "distance": "7m"
    },
    {
      "id": "30001",
      "name": "Dwarf Hotot",
      "category": "HOME_MADE_FOOD",
      "address": {
        "street": "Lukas Glen",
        "zipcode": 32029,
        "city": "Jacksonville",
        "country": "US"
      },
      "phone": "1-768-959-8560 x32735",
      "rating": 4.1,
      "imgSrc": "https://loremflickr.com/640/480/food?lock=6272263372406784",
      "geo": {
        "latitude": -73.5901,
        "longitude": -23.4126
      },
      "tags": ["Chinese", "Smoothies"],
      "distance": "2m"
    },
    {
      "id": "30002",
      "name": "American Sable",
      "category": "FOOD_TRUCK",
      "address": {
        "street": "Reina Parks",
        "zipcode": 32213,
        "city": "Jacksonville",
        "country": "US"
      },
      "phone": "1-513-738-9158 x02181",
      "rating": 4.8,
      "imgSrc": "https://loremflickr.com/640/480/food?lock=7190212855726080",
      "geo": {
        "latitude": -60.6874,
        "longitude": -107.0215
      },
      "tags": ["Indian", "Coffee"],
      "distance": "7m"
    },
    {
      "id": "30003",
      "name": "Tan",
      "category": "FOOD_TRUCK",
      "address": {
        "street": "Cronin Estate",
        "zipcode": 32050,
        "city": "Jacksonville",
        "country": "US"
      },
      "phone": "644-307-5536 x39829",
      "rating": 4.8,
      "imgSrc": "https://loremflickr.com/640/480/food?lock=1723854854553600",
      "geo": {
        "latitude": -69.2312,
        "longitude": 23.7745
      },
      "tags": ["Italian", "Soups"],
      "distance": "6m"
    },
    {
      "id": "30004",
      "name": "Tan",
      "category": "FOOD_TRUCK",
      "address": {
        "street": "Nellie Path",
        "zipcode": 32093,
        "city": "Jacksonville",
        "country": "US"
      },
      "phone": "1-956-288-0199 x442",
      "rating": 3.2,
      "imgSrc": "https://loremflickr.com/640/480/food?lock=4378404545626112",
      "geo": {
        "latitude": -3.7452,
        "longitude": 102.786
      },
      "tags": ["Indian", "Coffee"],
      "distance": "9m"
    },
    {
      "id": "30005",
      "name": "Standard Chinchilla",
      "category": "FOOD_TRUCK",
      "address": {
        "street": "Keara Parks",
        "zipcode": 32270,
        "city": "Jacksonville",
        "country": "US"
      },
      "phone": "614.335.1252 x4688",
      "rating": 3.7,
      "imgSrc": "https://loremflickr.com/640/480/food?lock=4529691161526272",
      "geo": {
        "latitude": 66.8938,
        "longitude": -37.1344
      },
      "tags": ["Indian", "Tea"],
      "distance": "3m"
    },
    {
      "id": "30006",
      "name": "French Angora",
      "category": "LOCAL_BUSINESS",
      "address": {
        "street": "Jordon Throughway",
        "zipcode": 32279,
        "city": "Jacksonville",
        "country": "US"
      },
      "phone": "507-415-9688 x8378",
      "rating": 3.2,
      "imgSrc": "https://loremflickr.com/640/480/food?lock=332361143156736",
      "geo": {
        "latitude": -66.4991,
        "longitude": -120.8869
      },
      "tags": ["Mexican", "Tea"],
      "distance": "5m"
    },
    {
      "id": "30007",
      "name": "Lilac",
      "category": "LOCAL_BUSINESS",
      "address": {
        "street": "Kiarra Manor",
        "zipcode": 32067,
        "city": "Jacksonville",
        "country": "US"
      },
      "phone": "447-850-3486 x24490",
      "rating": 3.8,
      "imgSrc": "https://loremflickr.com/640/480/food?lock=19499080220672",
      "geo": {
        "latitude": 76.7386,
        "longitude": 59.1635
      },
      "tags": ["Italian", "Coffee"],
      "distance": "11m"
    },
    {
      "id": "30008",
      "name": "English Spot",
      "category": "FOOD_TRUCK",
      "address": {
        "street": "Axel Ridges",
        "zipcode": 32073,
        "city": "Jacksonville",
        "country": "US"
      },
      "phone": "1-864-581-4289 x68578",
      "rating": 3.5,
      "imgSrc": "https://loremflickr.com/640/480/food?lock=4785880629772288",
      "geo": {
        "latitude": -16.8942,
        "longitude": 54.4232
      },
      "tags": ["Chinese", "Coffee"],
      "distance": "13m"
    },
    {
      "id": "30009",
      "name": "Mini Rex",
      "category": "FOOD_TRUCK",
      "address": {
        "street": "Terry Lights",
        "zipcode": 32090,
        "city": "Jacksonville",
        "country": "US"
      },
      "phone": "348-863-8428 x47562",
      "rating": 3.3,
      "imgSrc": "https://loremflickr.com/640/480/food?lock=5867967518605312",
      "geo": {
        "latitude": 2.1466,
        "longitude": -165.2746
      },
      "tags": ["Italian", "Tea"],
      "distance": "3m"
    },
    {
      "id": "30010",
      "name": "American",
      "category": "FOOD_TRUCK",
      "address": {
        "street": "Bartoletti Orchard",
        "zipcode": 32110,
        "city": "Jacksonville",
        "country": "US"
      },
      "phone": "1-337-553-3740 x8395",
      "rating": 3,
      "imgSrc": "https://loremflickr.com/640/480/food?lock=628536882757632",
      "geo": {
        "latitude": 60.4493,
        "longitude": -121.106
      },
      "tags": ["Chinese", "Tea"],
      "distance": "12m"
    },
    {
      "id": "30011",
      "name": "Mini Satin",
      "category": "FOOD_TRUCK",
      "address": {
        "street": "McCullough Gateway",
        "zipcode": 32090,
        "city": "Jacksonville",
        "country": "US"
      },
      "phone": "673-402-7030 x381",
      "rating": 3.2,
      "imgSrc": "https://loremflickr.com/640/480/food?lock=2260062428987392",
      "geo": {
        "latitude": -19.5061,
        "longitude": -127.126
      },
      "tags": ["Mexican", "Soups"],
      "distance": "12m"
    },
    {
      "id": "30012",
      "name": "English Angora",
      "category": "LOCAL_BUSINESS",
      "address": {
        "street": "Powlowski Crossing",
        "zipcode": 32117,
        "city": "Jacksonville",
        "country": "US"
      },
      "phone": "251-997-5006 x210",
      "rating": 4.8,
      "imgSrc": "https://loremflickr.com/640/480/food?lock=5800753876697088",
      "geo": {
        "latitude": -65.8887,
        "longitude": 11.3096
      },
      "tags": ["Chinese", "Smoothies"],
      "distance": "9m"
    },
    {
      "id": "30013",
      "name": "Mini Rex",
      "category": "LOCAL_BUSINESS",
      "address": {
        "street": "Luella Lights",
        "zipcode": 32063,
        "city": "Jacksonville",
        "country": "US"
      },
      "phone": "382-617-3528",
      "rating": 3.7,
      "imgSrc": "https://loremflickr.com/640/480/food?lock=381630606737408",
      "geo": {
        "latitude": -55.7468,
        "longitude": -112.9594
      },
      "tags": ["Fast Food", "Tea"],
      "distance": "7m"
    },
    {
      "id": "30014",
      "name": "American Chinchilla",
      "category": "FOOD_TRUCK",
      "address": {
        "street": "Alberta Burg",
        "zipcode": 32218,
        "city": "Jacksonville",
        "country": "US"
      },
      "phone": "388-461-3986 x68901",
      "rating": 3,
      "imgSrc": "https://loremflickr.com/640/480/food?lock=6880334163476480",
      "geo": {
        "latitude": -69.9989,
        "longitude": -16.3089
      },
      "tags": ["Fast Food", "Tea"],
      "distance": "3m"
    },
    {
      "id": "30015",
      "name": "Jersey Wooly",
      "category": "HOME_MADE_FOOD",
      "address": {
        "street": "Lenore Bypass",
        "zipcode": 32258,
        "city": "Jacksonville",
        "country": "US"
      },
      "phone": "(669) 677-2067 x2410",
      "rating": 3.9,
      "imgSrc": "https://loremflickr.com/640/480/food?lock=5763423312805888",
      "geo": {
        "latitude": 76.542,
        "longitude": 121.3436
      },
      "tags": ["Healthy", "Juices"],
      "distance": "8m"
    },
    {
      "id": "30016",
      "name": "Champagne D’Argent",
      "category": "LOCAL_BUSINESS",
      "address": {
        "street": "Romaguera Radial",
        "zipcode": 32149,
        "city": "Jacksonville",
        "country": "US"
      },
      "phone": "1-968-914-4184 x3193",
      "rating": 4.5,
      "imgSrc": "https://loremflickr.com/640/480/food?lock=6851455665307648",
      "geo": {
        "latitude": 45.3248,
        "longitude": 174.1872
      },
      "tags": ["Italian", "Juices"],
      "distance": "4m"
    },
    {
      "id": "30017",
      "name": "New Zealand",
      "category": "LOCAL_BUSINESS",
      "address": {
        "street": "Grimes Parkway",
        "zipcode": 32040,
        "city": "Jacksonville",
        "country": "US"
      },
      "phone": "279.756.1198 x47923",
      "rating": 3.9,
      "imgSrc": "https://loremflickr.com/640/480/food?lock=8947902512627712",
      "geo": {
        "latitude": 37.5826,
        "longitude": -134.2173
      },
      "tags": ["Thai", "Tea"],
      "distance": "12m"
    },
    {
      "id": "30018",
      "name": "Rex",
      "category": "HOME_MADE_FOOD",
      "address": {
        "street": "Lynch Wall",
        "zipcode": 32044,
        "city": "Jacksonville",
        "country": "US"
      },
      "phone": "450.432.1968 x355",
      "rating": 3.1,
      "imgSrc": "https://loremflickr.com/640/480/food?lock=6982515254362112",
      "geo": {
        "latitude": 77.548,
        "longitude": -51.8755
      },
      "tags": ["Chinese", "Tea"],
      "distance": "10m"
    },
    {
      "id": "30019",
      "name": "Dutch",
      "category": "FOOD_TRUCK",
      "address": {
        "street": "Finn Keys",
        "zipcode": 32015,
        "city": "Jacksonville",
        "country": "US"
      },
      "phone": "1-340-830-2141 x4308",
      "rating": 3.6,
      "imgSrc": "https://loremflickr.com/640/480/food?lock=4184543019925504",
      "geo": {
        "latitude": 41.7067,
        "longitude": 115.0941
      },
      "tags": ["Mexican", "Smoothies"],
      "distance": "12m"
    },
    {
      "id": "30020",
      "name": "Crème D’Argent",
      "category": "FOOD_TRUCK",
      "address": {
        "street": "Wade Oval",
        "zipcode": 32288,
        "city": "Jacksonville",
        "country": "US"
      },
      "phone": "(649) 675-9873",
      "rating": 4.3,
      "imgSrc": "https://loremflickr.com/640/480/food?lock=2367195652816896",
      "geo": {
        "latitude": -68.0214,
        "longitude": 33.5962
      },
      "tags": ["Fast Food", "Coffee"],
      "distance": "4m"
    },
    {
      "id": "30021",
      "name": "Thrianta",
      "category": "LOCAL_BUSINESS",
      "address": {
        "street": "Hettie Rest",
        "zipcode": 32044,
        "city": "Jacksonville",
        "country": "US"
      },
      "phone": "(606) 699-8224 x95121",
      "rating": 4.3,
      "imgSrc": "https://loremflickr.com/640/480/food?lock=1171414212149248",
      "geo": {
        "latitude": -19.2207,
        "longitude": -152.5205
      },
      "tags": ["Greek", "Juices"],
      "distance": "3m"
    },
    {
      "id": "30022",
      "name": "English Spot",
      "category": "HOME_MADE_FOOD",
      "address": {
        "street": "Von Knoll",
        "zipcode": 32134,
        "city": "Jacksonville",
        "country": "US"
      },
      "phone": "297-224-2769 x5631",
      "rating": 3.7,
      "imgSrc": "https://loremflickr.com/640/480/food?lock=6868114383831040",
      "geo": {
        "latitude": 3.7196,
        "longitude": -42.6012
      },
      "tags": ["Chinese", "Juices"],
      "distance": "9m"
    },
    {
      "id": "30023",
      "name": "Cinnamon",
      "category": "LOCAL_BUSINESS",
      "address": {
        "street": "Howe Rapids",
        "zipcode": 32096,
        "city": "Jacksonville",
        "country": "US"
      },
      "phone": "1-985-210-5083",
      "rating": 4.6,
      "imgSrc": "https://loremflickr.com/640/480/food?lock=4415050322280448",
      "geo": {
        "latitude": -47.2389,
        "longitude": 90.3561
      },
      "tags": ["Greek", "Soups"],
      "distance": "4m"
    },
    {
      "id": "30024",
      "name": "Standard Chinchilla",
      "category": "FOOD_TRUCK",
      "address": {
        "street": "Hartmann Land",
        "zipcode": 32104,
        "city": "Jacksonville",
        "country": "US"
      },
      "phone": "442-677-1592 x774",
      "rating": 3.6,
      "imgSrc": "https://loremflickr.com/640/480/food?lock=2592835729620992",
      "geo": {
        "latitude": 41.1183,
        "longitude": -116.7493
      },
      "tags": ["Indian", "Coffee"],
      "distance": "6m"
    },
    {
      "id": "30025",
      "name": "American Sable",
      "category": "HOME_MADE_FOOD",
      "address": {
        "street": "Libbie Oval",
        "zipcode": 32030,
        "city": "Jacksonville",
        "country": "US"
      },
      "phone": "(553) 797-0606",
      "rating": 4.5,
      "imgSrc": "https://loremflickr.com/640/480/food?lock=6805774382661632",
      "geo": {
        "latitude": -12.8476,
        "longitude": -80.4178
      },
      "tags": ["Mexican", "Smoothies"],
      "distance": "11m"
    },
    {
      "id": "30026",
      "name": "Dutch",
      "category": "LOCAL_BUSINESS",
      "address": {
        "street": "Mueller Flat",
        "zipcode": 32197,
        "city": "Jacksonville",
        "country": "US"
      },
      "phone": "1-250-517-0320",
      "rating": 4.8,
      "imgSrc": "https://loremflickr.com/640/480/food?lock=7041915771944960",
      "geo": {
        "latitude": -56.2387,
        "longitude": 86.7803
      },
      "tags": ["Indian", "Coffee"],
      "distance": "9m"
    },
    {
      "id": "30027",
      "name": "American Fuzzy Lop",
      "category": "LOCAL_BUSINESS",
      "address": {
        "street": "Green Rapid",
        "zipcode": 32239,
        "city": "Jacksonville",
        "country": "US"
      },
      "phone": "(227) 908-9846 x411",
      "rating": 3.4,
      "imgSrc": "https://loremflickr.com/640/480/food?lock=590342982205440",
      "geo": {
        "latitude": -46.7347,
        "longitude": -122.6904
      },
      "tags": ["Greek", "Smoothies"],
      "distance": "8m"
    },
    {
      "id": "30028",
      "name": "French Angora",
      "category": "HOME_MADE_FOOD",
      "address": {
        "street": "Jed Walk",
        "zipcode": 32291,
        "city": "Jacksonville",
        "country": "US"
      },
      "phone": "233-414-3173 x4873",
      "rating": 3.9,
      "imgSrc": "https://loremflickr.com/640/480/food?lock=3010708895694848",
      "geo": {
        "latitude": 52.1062,
        "longitude": -50.0108
      },
      "tags": ["Healthy", "Tea"],
      "distance": "10m"
    },
    {
      "id": "30029",
      "name": "Harlequin",
      "category": "LOCAL_BUSINESS",
      "address": {
        "street": "Nikolaus Corners",
        "zipcode": 32110,
        "city": "Jacksonville",
        "country": "US"
      },
      "phone": "1-369-997-3995 x2042",
      "rating": 3.1,
      "imgSrc": "https://loremflickr.com/640/480/food?lock=5714397991272448",
      "geo": {
        "latitude": 63.531,
        "longitude": -76.5973
      },
      "tags": ["Indian", "Juices"],
      "distance": "6m"
    },
    {
      "id": "30030",
      "name": "Palomino",
      "category": "FOOD_TRUCK",
      "address": {
        "street": "Hilda Fields",
        "zipcode": 32255,
        "city": "Jacksonville",
        "country": "US"
      },
      "phone": "798.911.8290 x81935",
      "rating": 4.1,
      "imgSrc": "https://loremflickr.com/640/480/food?lock=2938470525829120",
      "geo": {
        "latitude": 10.5216,
        "longitude": 83.0271
      },
      "tags": ["Thai", "Juices"],
      "distance": "8m"
    },
    {
      "id": "30031",
      "name": "Holland Lop",
      "category": "FOOD_TRUCK",
      "address": {
        "street": "Vidal Junction",
        "zipcode": 32028,
        "city": "Jacksonville",
        "country": "US"
      },
      "phone": "403.502.6248 x68489",
      "rating": 3.9,
      "imgSrc": "https://loremflickr.com/640/480/food?lock=6240865213218816",
      "geo": {
        "latitude": 20.0314,
        "longitude": 67.6211
      },
      "tags": ["Healthy", "Tea"],
      "distance": "14m"
    },
    {
      "id": "30032",
      "name": "Jersey Wooly",
      "category": "LOCAL_BUSINESS",
      "address": {
        "street": "Hackett Tunnel",
        "zipcode": 32295,
        "city": "Jacksonville",
        "country": "US"
      },
      "phone": "(527) 833-0605",
      "rating": 3.3,
      "imgSrc": "https://loremflickr.com/640/480/food?lock=4253726856445952",
      "geo": {
        "latitude": -15.9923,
        "longitude": -67.9281
      },
      "tags": ["Thai", "Tea"],
      "distance": "3m"
    },
    {
      "id": "30033",
      "name": "Mini Lop",
      "category": "LOCAL_BUSINESS",
      "address": {
        "street": "Wiegand Gateway",
        "zipcode": 32260,
        "city": "Jacksonville",
        "country": "US"
      },
      "phone": "(326) 282-9956 x7554",
      "rating": 3.1,
      "imgSrc": "https://loremflickr.com/640/480/food?lock=7218520498634752",
      "geo": {
        "latitude": 77.5572,
        "longitude": 89.9287
      },
      "tags": ["Fast Food", "Tea"],
      "distance": "13m"
    },
    {
      "id": "30034",
      "name": "French Lop",
      "category": "HOME_MADE_FOOD",
      "address": {
        "street": "Simonis Grove",
        "zipcode": 32251,
        "city": "Jacksonville",
        "country": "US"
      },
      "phone": "1-985-219-7997 x710",
      "rating": 4.3,
      "imgSrc": "https://loremflickr.com/640/480/food?lock=2887388569272320",
      "geo": {
        "latitude": 0.0115,
        "longitude": -90.8011
      },
      "tags": ["Fast Food", "Soups"],
      "distance": "6m"
    },
    {
      "id": "30035",
      "name": "Tan",
      "category": "LOCAL_BUSINESS",
      "address": {
        "street": "Hodkiewicz Streets",
        "zipcode": 32140,
        "city": "Jacksonville",
        "country": "US"
      },
      "phone": "(757) 482-9542 x3702",
      "rating": 3.4,
      "imgSrc": "https://loremflickr.com/640/480/food?lock=4501145590431744",
      "geo": {
        "latitude": 46.4364,
        "longitude": 156.8873
      },
      "tags": ["Chinese", "Juices"],
      "distance": "3m"
    },
    {
      "id": "30036",
      "name": "American Sable",
      "category": "HOME_MADE_FOOD",
      "address": {
        "street": "Schinner Loaf",
        "zipcode": 32065,
        "city": "Jacksonville",
        "country": "US"
      },
      "phone": "(225) 786-4708",
      "rating": 4.9,
      "imgSrc": "https://loremflickr.com/640/480/food?lock=422569641508864",
      "geo": {
        "latitude": -65.4436,
        "longitude": 172.563
      },
      "tags": ["Thai", "Smoothies"],
      "distance": "14m"
    },
    {
      "id": "30037",
      "name": "Palomino",
      "category": "FOOD_TRUCK",
      "address": {
        "street": "Rowe Underpass",
        "zipcode": 32130,
        "city": "Jacksonville",
        "country": "US"
      },
      "phone": "1-524-951-0737 x1245",
      "rating": 4.4,
      "imgSrc": "https://loremflickr.com/640/480/food?lock=3143454972444672",
      "geo": {
        "latitude": 27.2339,
        "longitude": 65.3059
      },
      "tags": ["Mexican", "Coffee"],
      "distance": "6m"
    },
    {
      "id": "30038",
      "name": "English Angora",
      "category": "HOME_MADE_FOOD",
      "address": {
        "street": "Noemie Pines",
        "zipcode": 32040,
        "city": "Jacksonville",
        "country": "US"
      },
      "phone": "1-675-576-0962 x5829",
      "rating": 3.4,
      "imgSrc": "https://loremflickr.com/640/480/food?lock=6879685092835328",
      "geo": {
        "latitude": 41.1441,
        "longitude": -106.2805
      },
      "tags": ["Italian", "Soups"],
      "distance": "9m"
    },
    {
      "id": "30039",
      "name": "Blanc de Hotot",
      "category": "LOCAL_BUSINESS",
      "address": {
        "street": "Kiana Rapids",
        "zipcode": 32215,
        "city": "Jacksonville",
        "country": "US"
      },
      "phone": "354.613.2679 x46780",
      "rating": 3,
      "imgSrc": "https://loremflickr.com/640/480/food?lock=3625983338872832",
      "geo": {
        "latitude": 54.3688,
        "longitude": 155.6456
      },
      "tags": ["Healthy", "Soups"],
      "distance": "2m"
    },
    {
      "id": "30040",
      "name": "Himalayan",
      "category": "LOCAL_BUSINESS",
      "address": {
        "street": "Buford Path",
        "zipcode": 32198,
        "city": "Jacksonville",
        "country": "US"
      },
      "phone": "517-221-7035 x7649",
      "rating": 4.8,
      "imgSrc": "https://loremflickr.com/640/480/food?lock=3127622854770688",
      "geo": {
        "latitude": 73.9987,
        "longitude": -82.5142
      },
      "tags": ["Italian", "Smoothies"],
      "distance": "14m"
    },
    {
      "id": "30041",
      "name": "Giant Chinchilla",
      "category": "FOOD_TRUCK",
      "address": {
        "street": "Willms Lock",
        "zipcode": 32174,
        "city": "Jacksonville",
        "country": "US"
      },
      "phone": "(943) 346-7784 x4437",
      "rating": 3.2,
      "imgSrc": "https://loremflickr.com/640/480/food?lock=1315229862461440",
      "geo": {
        "latitude": 54.0708,
        "longitude": 146.0384
      },
      "tags": ["Greek", "Tea"],
      "distance": "6m"
    },
    {
      "id": "30042",
      "name": "French Angora",
      "category": "FOOD_TRUCK",
      "address": {
        "street": "Haley Pine",
        "zipcode": 32259,
        "city": "Jacksonville",
        "country": "US"
      },
      "phone": "(251) 998-6252",
      "rating": 4.6,
      "imgSrc": "https://loremflickr.com/640/480/food?lock=3167539406307328",
      "geo": {
        "latitude": 67.4951,
        "longitude": -136.8557
      },
      "tags": ["Thai", "Coffee"],
      "distance": "8m"
    },
    {
      "id": "30043",
      "name": "Belgian Hare",
      "category": "LOCAL_BUSINESS",
      "address": {
        "street": "Ryan Lakes",
        "zipcode": 32203,
        "city": "Jacksonville",
        "country": "US"
      },
      "phone": "624.314.0816 x38794",
      "rating": 4.2,
      "imgSrc": "https://loremflickr.com/640/480/food?lock=5394319066267648",
      "geo": {
        "latitude": -58.5931,
        "longitude": -159.1054
      },
      "tags": ["Thai", "Coffee"],
      "distance": "7m"
    },
    {
      "id": "30044",
      "name": "New Zealand",
      "category": "HOME_MADE_FOOD",
      "address": {
        "street": "Simonis Crossroad",
        "zipcode": 32156,
        "city": "Jacksonville",
        "country": "US"
      },
      "phone": "(734) 411-7145 x907",
      "rating": 3.6,
      "imgSrc": "https://loremflickr.com/640/480/food?lock=6442934727606272",
      "geo": {
        "latitude": 8.969,
        "longitude": 89.4001
      },
      "tags": ["Fast Food", "Coffee"],
      "distance": "3m"
    },
    {
      "id": "30045",
      "name": "Cinnamon",
      "category": "HOME_MADE_FOOD",
      "address": {
        "street": "Donnell Key",
        "zipcode": 32284,
        "city": "Jacksonville",
        "country": "US"
      },
      "phone": "654-532-5319 x520",
      "rating": 4.7,
      "imgSrc": "https://loremflickr.com/640/480/food?lock=1519319678713856",
      "geo": {
        "latitude": -23.51,
        "longitude": 20.5724
      },
      "tags": ["Mexican", "Juices"],
      "distance": "10m"
    },
    {
      "id": "30046",
      "name": "Belgian Hare",
      "category": "LOCAL_BUSINESS",
      "address": {
        "street": "Rosalinda Loop",
        "zipcode": 32050,
        "city": "Jacksonville",
        "country": "US"
      },
      "phone": "1-228-668-3452",
      "rating": 4.1,
      "imgSrc": "https://loremflickr.com/640/480/food?lock=3968056332124160",
      "geo": {
        "latitude": -85.7927,
        "longitude": 19.1038
      },
      "tags": ["Chinese", "Juices"],
      "distance": "4m"
    },
    {
      "id": "30047",
      "name": "Standard Chinchilla",
      "category": "HOME_MADE_FOOD",
      "address": {
        "street": "Yost Mountain",
        "zipcode": 32113,
        "city": "Jacksonville",
        "country": "US"
      },
      "phone": "477-986-2384",
      "rating": 4.6,
      "imgSrc": "https://loremflickr.com/640/480/food?lock=4171314489196544",
      "geo": {
        "latitude": -7.7109,
        "longitude": 115.5752
      },
      "tags": ["Fast Food", "Tea"],
      "distance": "9m"
    }
  ]
}
